{
  "type": "FeatureCollection",
  "features": [
    {
      "geometry": {
        "type": "Point",
        "coordinates": [
          151.856400,
          7.385094
        ]
      },
      "type": "Feature",
      "properties": {
        "id": "heianMaru",
        "title": "Heian Maru",
        "averageDepth": "15m",
        "maxDepth": "20m",
        "length": 155,
        "isGreatestHit": true,
        "vesselType": "Submarine Tender"
      }
    },
    {
      "geometry": {
        "type": "Point",
        "coordinates": [
          151.840564,
          7.392414
        ]
      },
      "type": "Feature",
      "properties": {
        "id": "shinoharaSubmarine",
        "title": "IJN Shinohara Submarine I-169",
        "averageDepth": "35m",
        "maxDepth": "43m",
        "length": 98,
        "isGreatestHit": false,
        "vesselType": "Type KD6a Submarine"
      }
    },
    {
      "geometry": {
        "type": "Point",
        "coordinates": [
          151.820994,
          7.391818
        ]
      },
      "type": "Feature",
      "properties": {
        "id": "yamagiriMaru",
        "title": "Yamagiri Maru",
        "averageDepth": "25m",
        "maxDepth": "33m",
        "length": 133,
        "isGreatestHit": false,
        "vesselType": "Cargo",
        "cargo": "14\" Shells & building materials"
      }
    },
    {
      "geometry": {
        "type": "Point",
        "coordinates": [
          151.848374,
          7.386626
        ]
      },
      "type": "Feature",
      "properties": {
        "id": "kenshoMaru",
        "title": "Kensho Maru",
        "averageDepth": "25m",
        "maxDepth": "33m",
        "length": 117,
        "isGreatestHit": true,
        "vesselType": "Cargo",
        "cargo": "Unladen, under repair"
      }
    },
    {
      "geometry": {
        "type": "Point",
        "coordinates": [
          151.844255,
          7.373518
        ]
      },
      "type": "Feature",
      "properties": {
        "id": "kiyozumiMaru",
        "title": "Kiyozumi Maru",
        "averageDepth": "24m",
        "maxDepth": "30m",
        "length": 138,
        "isGreatestHit": false,
        "vesselType": "Cargo",
        "cargo": "Unladen, under repair"
      }
    },
    {
      "geometry": {
        "type": "Point",
        "coordinates": [
          151.844255,
          7.373518
        ]
      },
      "type": "Feature",
      "properties": {
        "id": "patrolBoat34",
        "title": "IJN Sutsuki Patrol Boat 34",
        "averageDepth": "9m",
        "maxDepth": "14m",
        "length": 84,
        "isGreatestHit": false,
        "vesselType": "Patrol Boat"
      }
    },
    {
      "geometry": {
        "type": "Point",
        "coordinates": [
          151.765891,
          7.407735
        ]
      },
      "type": "Feature",
      "properties": {
        "id": "shinkokuMaru",
        "title": "Shinkoku Maru",
        "averageDepth": "24m",
        "maxDepth": "38m",
        "length": 152,
        "isGreatestHit": true,
        "vesselType": "Fleet Oiler"
      }
    },
    {
      "geometry": {
        "type": "Point",
        "coordinates": [
          151.719543,
          7.448503
        ]
      },
      "type": "Feature",
      "properties": {
        "id": "fumizukiDestroyer",
        "title": "IJN Fumizuki Destroyer",
        "averageDepth": "35m",
        "maxDepth": "43m",
        "length": 97,
        "isGreatestHit": false,
        "vesselType": "Destroyer"
      }
    },
    {
      "geometry": {
        "type": "Point",
        "coordinates": [
          151.644012,
          7.338532
        ]
      },
      "type": "Feature",
      "properties": {
        "id": "hanakawaMaru",
        "title": "Hanakawa Maru",
        "averageDepth": "33m",
        "maxDepth": "25m",
        "length": 112,
        "isGreatestHit": false,
        "vesselType": "Cargo",
        "cargo": "Cement, troop transport"
      }
    },
    {
      "geometry": {
        "type": "Point",
        "coordinates": [
          151.857987,
          7.373305
        ]
      },
      "type": "Feature",
      "properties": {
        "id": "futagamiTug",
        "title": "Futagami Hashima Tug",
        "averageDepth": "20m",
        "maxDepth": "33m",
        "length": 26,
        "isGreatestHit": false,
        "vesselType": "625 Ton Salvage Tug"
      }
    },
    {
      "geometry": {
        "type": "Point",
        "coordinates": [
          151.859833,
          7.374837
        ]
      },
      "type": "Feature",
      "properties": {
        "id": "eissen761",
        "title": "Eissen 761 Tug",
        "averageDepth": "8m",
        "maxDepth": "12m",
        "length": 24,
        "isGreatestHit": false,
        "vesselType": "300 Ton Harbor Tug"
      }
    },
    {
      "geometry": {
        "type": "Point",
        "coordinates": [
          151.873094,
          7.361558
        ]
      },
      "type": "Feature",
      "properties": {
        "id": "emilyFlyingBoat",
        "title": "Emily Flying Boat",
        "averageDepth": "15m",
        "maxDepth": "15m",
        "isGreatestHit": false,
        "vesselType": "Aircraft",
        "wingspan": 38
      }
    },
    {
      "geometry": {
        "type": "Point",
        "coordinates": [
          151.881033,
          7.356663
        ]
      },
      "type": "Feature",
      "properties": {
        "id": "a6mZeroFighter",
        "title": "A6M Zero Fighter",
        "averageDepth": "6m",
        "maxDepth": "6m",
        "isGreatestHit": false,
        "vesselType": "Aircraft",
        "wingspan": 12
      }
    },
    {
      "geometry": {
        "type": "Point",
        "coordinates": [
          151.880260,
          7.351088
        ]
      },
      "type": "Feature",
      "properties": {
        "id": "bettyBomber",
        "title": "Betty Bomber",
        "averageDepth": "16m",
        "maxDepth": "18m",
        "isGreatestHit": false,
        "vesselType": "Aircraft",
        "wingspan": 25,
        "model": "Mitsubishi G4M3 Type 1"
      }
    },
    {
      "geometry": {
        "type": "Point",
        "coordinates": [
          151.888157,
          7.346363
        ]
      },
      "type": "Feature",
      "properties": {
        "id": "fujikawaMaru",
        "title": "Fujikawa Maru",
        "averageDepth": "20m",
        "maxDepth": "37m",
        "length": 133,
        "isGreatestHit": true,
        "vesselType": "Cargo",
        "cargo": "Aircraft parts & ordnance"
      }
    },
    {
      "geometry": {
        "type": "Point",
        "coordinates": [
          151.881248,
          7.321037
        ]
      },
      "type": "Feature",
      "properties": {
        "id": "unkaiMaru",
        "title": "Unkai Maru",
        "averageDepth": "30m",
        "maxDepth": "40m",
        "length": 101,
        "isGreatestHit": false,
        "vesselType": "Cargo",
        "cargo": "Infantry baggage"
      }
    },
    {
      "geometry": {
        "type": "Point",
        "coordinates": [
          151.868115,
          7.312397
        ]
      },
      "type": "Feature",
      "properties": {
        "id": "yubaeMaru",
        "title": "Yubae Maru",
        "averageDepth": "24m",
        "maxDepth": "33m",
        "length": 93,
        "isGreatestHit": false,
        "vesselType": "Cargo",
        "cargo": "Naval parts & garrison supplies"
      }
    },
    {
      "geometry": {
        "type": "Point",
        "coordinates": [
          151.886312,
          7.311886
        ]
      },
      "type": "Feature",
      "properties": {
        "id": "goseiMaru",
        "title": "Gosei Maru",
        "averageDepth": "15m",
        "maxDepth": "30m",
        "length": 83,
        "isGreatestHit": false,
        "vesselType": "Cargo",
        "cargo": "Torpedos, shells, fuel drums"
      }
    },
    {
      "geometry": {
        "type": "Point",
        "coordinates": [
          151.868802,
          7.296902
        ]
      },
      "type": "Feature",
      "properties": {
        "id": "sankisanMaru",
        "title": "Sankisan Maru",
        "averageDepth": "12m",
        "maxDepth": "27m",
        "length": 115,
        "isGreatestHit": true,
        "vesselType": "Cargo",
        "cargo": "Truck frames & aircraft parts"
      }
    },
    {
      "geometry": {
        "type": "Point",
        "coordinates": [
          151.866742,
          7.295881
        ]
      },
      "type": "Feature",
      "properties": {
        "id": "amagisanMaru",
        "title": "Amagisan Maru",
        "averageDepth": "40m",
        "maxDepth": "58m",
        "length": 137,
        "isGreatestHit": false,
        "vesselType": "Cargo",
        "cargo": "Trucks, aircraft parts"
      }
    },
    {
      "geometry": {
        "type": "Point",
        "coordinates": [
          151.899787,
          7.305075
        ]
      },
      "type": "Feature",
      "properties": {
        "id": "rioDeJaneiroMaru",
        "title": "Rio de Janeiro Maru",
        "averageDepth": "22m",
        "maxDepth": "30m",
        "length": 141,
        "isGreatestHit": true,
        "vesselType": "Troop Transport"
      }
    },
    {
      "geometry": {
        "type": "Point",
        "coordinates": [
          151.914193,
          7.386682
        ]
      },
      "type": "Feature",
      "properties": {
        "id": "nippoMaru",
        "title": "Nippo Maru",
        "averageDepth": "33m",
        "maxDepth": "47m",
        "length": 107,
        "isGreatestHit": true,
        "vesselType": "Cargo",
        "cargo": "Field artillery & ammunition"
      }
    },
    {
      "geometry": {
        "type": "Point",
        "coordinates": [
          151.913163,
          7.375787
        ]
      },
      "type": "Feature",
      "properties": {
        "id": "aikokuMaru",
        "title": "Aikoku Maru",
        "averageDepth": "45m",
        "maxDepth": "64m",
        "length": 161,
        "isGreatestHit": false,
        "vesselType": "Troop Transport"
      }
    },
    {
      "geometry": {
        "type": "Point",
        "coordinates": [
          151.909987,
          7.372978
        ]
      },
      "type": "Feature",
      "properties": {
        "id": "momokawaMaru",
        "title": "Momokawa Maru",
        "averageDepth": "33m",
        "maxDepth": "43m",
        "length": 107,
        "isGreatestHit": false,
        "vesselType": "Cargo",
        "cargo": "Trucks & aircraft parts"
      }
    },
    {
      "geometry": {
        "type": "Point",
        "coordinates": [
          151.912133,
          7.372808
        ]
      },
      "type": "Feature",
      "properties": {
        "id": "naganoMaru",
        "title": "Nagano Maru",
        "averageDepth": "50m",
        "maxDepth": "64m",
        "length": 105,
        "isGreatestHit": false,
        "vesselType": "Cargo",
        "cargo": "Trucks, bulldozer, tarmac roller"
      }
    },
    {
      "geometry": {
        "type": "Point",
        "coordinates": [
          151.914021,
          7.371616
        ]
      },
      "type": "Feature",
      "properties": {
        "id": "shotanMaru",
        "title": "Shotan Maru",
        "averageDepth": "45m",
        "maxDepth": "58m",
        "length": 86,
        "isGreatestHit": false,
        "vesselType": "Cargo",
        "cargo": "Trucks, ammunition, fuel drums"
      }
    },
    {
      "geometry": {
        "type": "Point",
        "coordinates": [
          151.910588,
          7.370595
        ]
      },
      "type": "Feature",
      "properties": {
        "id": "seikoMaru",
        "title": "Seiko Maru",
        "averageDepth": "35m",
        "maxDepth": "50m",
        "length": 120,
        "isGreatestHit": false,
        "vesselType": "Cargo",
        "cargo": "Torpedos, feild artillery"
      }
    },
    {
      "geometry": {
        "type": "Point",
        "coordinates": [
          151.908528,
          7.369148
        ]
      },
      "type": "Feature",
      "properties": {
        "id": "sanFranciscoMaru",
        "title": "San Francisco Maru",
        "averageDepth": "45m",
        "maxDepth": "58m",
        "length": 117,
        "isGreatestHit": true,
        "vesselType": "Cargo",
        "cargo": "Trucks, tanks, munitions"
      }
    },
    {
      "geometry": {
        "type": "Point",
        "coordinates": [
          151.908528,
          7.369148
        ]
      },
      "type": "Feature",
      "properties": {
        "id": "hokuyoMaru",
        "title": "Hokuyo Maru",
        "averageDepth": "52m",
        "maxDepth": "64m",
        "length":109,
        "isGreatestHit": false,
        "vesselType": "Cargo",
        "cargo": "Building supplies"
      }
    },
    {
      "geometry": {
        "type": "Point",
        "coordinates": [
          151.907927,
          7.365998
        ]
      },
      "type": "Feature",
      "properties": {
        "id": "hokiMaru",
        "title": "Hoki Maru",
        "averageDepth": "32m",
        "maxDepth": "43m",
        "length": 137,
        "isGreatestHit": false,
        "vesselType": "Cargo",
        "cargo": "Trucks, tractor, bulldozer"
      }
    },
    {
      "geometry": {
        "type": "Point",
        "coordinates": [
          151.824755,
          7.646626
        ]
      },
      "type": "Feature",
      "properties": {
        "id": "ijnOite",
        "title": "IJN Oite Destroyer",
        "averageDepth": "58m",
        "maxDepth": "62m",
        "length": 99,
        "isGreatestHit": false,
        "vesselType": "Destroyer"
      }
    },
    {
      "geometry": {
        "type": "Point",
        "coordinates": [
          151.850161,
          7.306563
        ]
      },
      "type": "Feature",
      "properties": {
        "id": "taihoMaru",
        "title": "Taiho Maru",
        "averageDepth": "35m",
        "maxDepth": "44m",
        "length": 99,
        "isGreatestHit": false,
        "vesselType": "Cargo",
        "cargo": "Fuel drums & landing craft"
      }
    },
    {
      "geometry": {
        "type": "Point",
        "coordinates": [
          151.892466,
          7.409601
        ]
      },
      "type": "Feature",
      "properties": {
        "id": "fujisanMaru",
        "title": "Fujisan Maru",
        "averageDepth": "45m",
        "maxDepth": "60m",
        "length": 149,
        "isGreatestHit": true,
        "vesselType": "Fuel Tanker",
      }
    }
  ]
}
