{
  "type": "FeatureCollection",
  "features": [
    {
      "geometry": {
        "type": "Point",
        "coordinates": [
          151.856400,
          7.385094
        ]
      },
      "type": "Feature",
      "properties": {
        "id": "heianMaru",
        "title": "Heian Maru",
        "averageDepth": "15m",
        "maxDepth": "20m"
      }
    },
    {
      "geometry": {
        "type": "Point",
        "coordinates": [
          151.840564,
          7.392414
        ]
      },
      "type": "Feature",
      "properties": {
        "id": "shinoharaSubmarine",
        "title": "IJN Shinohara Submarine I-169",
        "averageDepth": "35m",
        "maxDepth": "43m"
      }
    },
    {
      "geometry": {
        "type": "Point",
        "coordinates": [
          151.820994,
          7.391818
        ]
      },
      "type": "Feature",
      "properties": {
        "id": "yamagiriMaru",
        "title": "Yamagiri Maru",
        "averageDepth": "25m",
        "maxDepth": "33m"
      }
    },
    {
      "geometry": {
        "type": "Point",
        "coordinates": [
          151.848374,
          7.386626
        ]
      },
      "type": "Feature",
      "properties": {
        "id": "kenshoMaru",
        "title": "Kensho Maru",
        "averageDepth": "25m",
        "maxDepth": "33m"
      }
    },
    {
      "geometry": {
        "type": "Point",
        "coordinates": [
          151.844255,
          7.373518
        ]
      },
      "type": "Feature",
      "properties": {
        "id": "kiyozumiMaru",
        "title": "Kiyozumi Maru",
        "averageDepth": "24m",
        "maxDepth": "30m"
      }
    },
    {
      "geometry": {
        "type": "Point",
        "coordinates": [
          151.844255,
          7.373518
        ]
      },
      "type": "Feature",
      "properties": {
        "id": "patrolBoat34",
        "title": "IJN Sutsuki Patrol Boat 34",
        "averageDepth": "9m",
        "maxDepth": "14m"
      }
    },
    {
      "geometry": {
        "type": "Point",
        "coordinates": [
          151.765891,
          7.407735
        ]
      },
      "type": "Feature",
      "properties": {
        "id": "shinkokuMaru",
        "title": "Shinkoku Maru",
        "averageDepth": "24m",
        "maxDepth": "38m"
      }
    },
    {
      "geometry": {
        "type": "Point",
        "coordinates": [
          151.719543,
          7.448503
        ]
      },
      "type": "Feature",
      "properties": {
        "id": "fumizukiDestroyer",
        "title": "IJN Fumizuki Destroyer",
        "averageDepth": "35m",
        "maxDepth": "43m"
      }
    },
    {
      "geometry": {
        "type": "Point",
        "coordinates": [
          151.644012,
          7.338532
        ]
      },
      "type": "Feature",
      "properties": {
        "id": "hanakawaMaru",
        "title": "Hanakawa Maru",
        "averageDepth": "33m",
        "maxDepth": "25m"
      }
    },
    {
      "geometry": {
        "type": "Point",
        "coordinates": [
          151.857987,
          7.373305
        ]
      },
      "type": "Feature",
      "properties": {
        "id": "futagamiTug",
        "title": "Futagami Hashima Tug",
        "averageDepth": "20m",
        "maxDepth": "33m"
      }
    },
    {
      "geometry": {
        "type": "Point",
        "coordinates": [
          151.859833,
          7.374837
        ]
      },
      "type": "Feature",
      "properties": {
        "id": "eissen761",
        "title": "Eissen 761 Tug",
        "averageDepth": "8m",
        "maxDepth": "12m"
      }
    },
    {
      "geometry": {
        "type": "Point",
        "coordinates": [
          151.873094,
          7.361558
        ]
      },
      "type": "Feature",
      "properties": {
        "id": "emilyFlyingBoat",
        "title": "Emily Flying Boat",
        "averageDepth": "15m",
        "maxDepth": "15m"
      }
    },
    {
      "geometry": {
        "type": "Point",
        "coordinates": [
          151.881033,
          7.356663
        ]
      },
      "type": "Feature",
      "properties": {
        "id": "a6mZeroFighter",
        "title": "A6M Zero Fighter",
        "averageDepth": "6m",
        "maxDepth": "6m"
      }
    },
    {
      "geometry": {
        "type": "Point",
        "coordinates": [
          151.880260,
          7.351088
        ]
      },
      "type": "Feature",
      "properties": {
        "id": "bettyBomber",
        "title": "Betty Bomber",
        "averageDepth": "16m",
        "maxDepth": "18m"
      }
    },
    {
      "geometry": {
        "type": "Point",
        "coordinates": [
          151.888157,
          7.346363
        ]
      },
      "type": "Feature",
      "properties": {
        "id": "fujikawaMaru",
        "title": "Fujikawa Maru",
        "averageDepth": "20m",
        "maxDepth": "37m"
      }
    },
    {
      "geometry": {
        "type": "Point",
        "coordinates": [
          151.881248,
          7.321037
        ]
      },
      "type": "Feature",
      "properties": {
        "id": "unkaiMaru",
        "title": "Unkai Maru",
        "averageDepth": "30m",
        "maxDepth": "40m"
      }
    },
    {
      "geometry": {
        "type": "Point",
        "coordinates": [
          151.868115,
          7.312397
        ]
      },
      "type": "Feature",
      "properties": {
        "id": "yubaeMaru",
        "title": "Yubae Maru",
        "averageDepth": "24m",
        "maxDepth": "33m"
      }
    },
    {
      "geometry": {
        "type": "Point",
        "coordinates": [
          151.886312,
          7.311886
        ]
      },
      "type": "Feature",
      "properties": {
        "id": "goseiMaru",
        "title": "Gosei Maru",
        "averageDepth": "15m",
        "maxDepth": "30m"
      }
    },
    {
      "geometry": {
        "type": "Point",
        "coordinates": [
          151.868802,
          7.296902
        ]
      },
      "type": "Feature",
      "properties": {
        "id": "sankisanMaru",
        "title": "Sankisan Maru",
        "averageDepth": "12m",
        "maxDepth": "27m"
      }
    },
    {
      "geometry": {
        "type": "Point",
        "coordinates": [
          151.866742,
          7.295881
        ]
      },
      "type": "Feature",
      "properties": {
        "id": "amagisanMaru",
        "title": "Amagisan Maru",
        "averageDepth": "40m",
        "maxDepth": "58m"
      }
    },
    {
      "geometry": {
        "type": "Point",
        "coordinates": [
          151.899787,
          7.305075
        ]
      },
      "type": "Feature",
      "properties": {
        "id": "rioDeJaneiroMaru",
        "title": "Rio de Janeiro Maru",
        "averageDepth": "22m",
        "maxDepth": "30m"
      }
    },
    {
      "geometry": {
        "type": "Point",
        "coordinates": [
          151.914193,
          7.386682
        ]
      },
      "type": "Feature",
      "properties": {
        "id": "nippoMaru",
        "title": "Nippo Maru",
        "averageDepth": "33m",
        "maxDepth": "47m"
      }
    },
    {
      "geometry": {
        "type": "Point",
        "coordinates": [
          151.913163,
          7.375787
        ]
      },
      "type": "Feature",
      "properties": {
        "id": "aikokuMaru",
        "title": "Aikoku Maru",
        "averageDepth": "45m",
        "maxDepth": "64m"
      }
    },
    {
      "geometry": {
        "type": "Point",
        "coordinates": [
          151.909987,
          7.372978
        ]
      },
      "type": "Feature",
      "properties": {
        "id": "momokawaMaru",
        "title": "Momokawa Maru",
        "averageDepth": "33m",
        "maxDepth": "43m"
      }
    },
    {
      "geometry": {
        "type": "Point",
        "coordinates": [
          151.912133,
          7.372808
        ]
      },
      "type": "Feature",
      "properties": {
        "id": "naganoMaru",
        "title": "Nagano Maru",
        "averageDepth": "50m",
        "maxDepth": "64m"
      }
    },
    {
      "geometry": {
        "type": "Point",
        "coordinates": [
          151.914021,
          7.371616
        ]
      },
      "type": "Feature",
      "properties": {
        "id": "shotanMaru",
        "title": "Shotan Maru",
        "averageDepth": "45m",
        "maxDepth": "58m"
      }
    },
    {
      "geometry": {
        "type": "Point",
        "coordinates": [
          151.910588,
          7.370595
        ]
      },
      "type": "Feature",
      "properties": {
        "id": "seikoMaru",
        "title": "Seiko Maru",
        "averageDepth": "35m",
        "maxDepth": "50m"
      }
    },
    {
      "geometry": {
        "type": "Point",
        "coordinates": [
          151.908528,
          7.369148
        ]
      },
      "type": "Feature",
      "properties": {
        "id": "sanFranciscoMaru",
        "title": "San Francisco Maru",
        "averageDepth": "45m",
        "maxDepth": "58m"
      }
    },
    {
      "geometry": {
        "type": "Point",
        "coordinates": [
          151.908528,
          7.369148
        ]
      },
      "type": "Feature",
      "properties": {
        "id": "hokuyoMaru",
        "title": "Hokuyo Maru",
        "averageDepth": "52m",
        "maxDepth": "64m"
      }
    },
    {
      "geometry": {
        "type": "Point",
        "coordinates": [
          151.907927,
          7.365998
        ]
      },
      "type": "Feature",
      "properties": {
        "id": "hokiMaru",
        "title": "Hoki Maru",
        "averageDepth": "32m",
        "maxDepth": "43m"
      }
    },
    {
      "geometry": {
        "type": "Point",
        "coordinates": [
          151.824755,
          7.646626
        ]
      },
      "type": "Feature",
      "properties": {
        "id": "ijnOite",
        "title": "IJN Oite Destroyer",
        "averageDepth": "58m",
        "maxDepth": "62m"
      }
    },
    {
      "geometry": {
        "type": "Point",
        "coordinates": [
          151.850161,
          7.306563
        ]
      },
      "type": "Feature",
      "properties": {
        "id": "taihoMaru",
        "title": "Taiho Maru",
        "averageDepth": "35m",
        "maxDepth": "44m"
      }
    },
    {
      "geometry": {
        "type": "Point",
        "coordinates": [
          151.892466,
          7.409601
        ]
      },
      "type": "Feature",
      "properties": {
        "id": "fujisanMaru",
        "title": "Fujisan Maru",
        "averageDepth": "45m",
        "maxDepth": "60m"
      }
    }
  ]
}
